facility_id,source_id,name,facility_type,municipality_code,county_code,lat,lon,beds,last_updated
fac_oslo_001,helsedir_reg_001,Oslo Universitetssykehus,sykehus,0301,03,59.936,10.738,1200,2026-06-01
fac_bergen_001,helsedir_reg_001,Haukeland Universitetssjukehus,sykehus,4601,46,60.377,5.360,1080,2026-06-01
fac_trondheim_001,helsedir_reg_001,St. Olavs hospital,sykehus,5001,50,63.421,10.398,920,2026-06-01
fac_stavanger_001,helsedir_reg_001,Stavanger universitetssjukehus,sykehus,1103,11,58.964,5.730,780,2026-06-01
fac_oslo_gp_001,kpr_open_001,Sentrum Legekontor,legekontor,0301,03,59.912,10.748,0,2026-06-05
fac_bergen_gp_001,kpr_open_001,Nordnes Legesenter,legekontor,4601,46,60.396,5.312,0,2026-06-05
fac_oslo_apotek_001,dmp_apotek_001,Apotek 1 Oslo S,apotek,0301,03,59.910,10.753,0,2026-06-05
fac_trondheim_apotek_001,dmp_apotek_001,Trondheim Torg Apotek,apotek,5001,50,63.430,10.395,0,2026-06-05
